__time,/telemetry100/accelerometer[0],/telemetry100/accelerometer[1],/telemetry100/accelerometer[2],/telemetry100/attitudeYPR[0],/telemetry100/attitudeYPR[1],/telemetry100/attitudeYPR[2],/telemetry100/attitude[0],/telemetry100/attitude[1],/telemetry100/attitude[2],/telemetry100/batteryVoltage,/telemetry100/current,/telemetry100/customPacket1[0],/telemetry100/customPacket1[10],/telemetry100/customPacket1[11],/telemetry100/customPacket1[12],/telemetry100/customPacket1[13],/telemetry100/customPacket1[1],/telemetry100/customPacket1[2],/telemetry100/customPacket1[3],/telemetry100/customPacket1[4],/telemetry100/customPacket1[5],/telemetry100/customPacket1[6],/telemetry100/customPacket1[7],/telemetry100/customPacket1[8],/telemetry100/customPacket1[9],/telemetry100/customPacket2[0],/telemetry100/customPacket2[10],/telemetry100/customPacket2[11],/telemetry100/customPacket2[12],/telemetry100/customPacket2[13],/telemetry100/customPacket2[1],/telemetry100/customPacket2[2],/telemetry100/customPacket2[3],/telemetry100/customPacket2[4],/telemetry100/customPacket2[5],/telemetry100/customPacket2[6],/telemetry100/customPacket2[7],/telemetry100/customPacket2[8],/telemetry100/customPacket2[9],/telemetry100/debugVals[0],/telemetry100/debugVals[1],/telemetry100/debugVals[2],/telemetry100/debugVals[3],/telemetry100/debugVals[4],/telemetry100/debugVals[5],/telemetry100/esc_rpm[0],/telemetry100/esc_rpm[1],/telemetry100/esc_rpm[2],/telemetry100/esc_rpm[3],/telemetry100/esp_debug_vals[0],/telemetry100/esp_debug_vals[1],/telemetry100/esp_debug_vals[2],/telemetry100/esp_debug_vals[3],/telemetry100/esp_debug_vals[4],/telemetry100/esp_debug_vals[5],/telemetry100/esp_debug_vals[6],/telemetry100/esp_debug_vals[7],/telemetry100/header/seq,/telemetry100/header/stamp,/telemetry100/motorForces[0],/telemetry100/motorForces[1],/telemetry100/motorForces[2],/telemetry100/motorForces[3],/telemetry100/packetNumber,/telemetry100/panicReason,/telemetry100/position[0],/telemetry100/position[1],/telemetry100/position[2],/telemetry100/rateGyro[0],/telemetry100/rateGyro[1],/telemetry100/rateGyro[2],/telemetry100/seqNum,/telemetry100/status_bits[0],/telemetry100/status_bits[1],/telemetry100/status_bits[2],/telemetry100/status_bits[3],/telemetry100/status_bits[4],/telemetry100/status_bits[5],/telemetry100/status_bits[6],/telemetry100/status_bits[7],/telemetry100/temperature,/telemetry100/type,/telemetry100/vehicleID,/telemetry100/velocity[0],/telemetry100/velocity[1],/telemetry100/velocity[2],/telemetry100/voltage,/telemetry100/warnings
1718298470.823468,-1.120605469,0.313110352,10.502014160,-0.927737713,-0.022765381,-0.001032269,-0.005554199,-0.009948730,-0.447387695,11.649780273,10.665130615,0.000000000,0.000000000,0.000000000,0.000000000,0.000000000,0.000000000,0.000000000,0.000000000,0.000000000,0.000000000,0.000000000,0.000000000,0.000000000,0.000000000,0.000000000,0.000000000,0.000000000,0.000000000,0.000000000,0.000000000,0.000000000,0.000000000,0.000000000,0.000000000,0.000000000,0.000000000,0.000000000,0.000000000,0.000000000,0.000000000,0.000000000,0.000000000,0.000000000,0.000000000,5428.000000000,5071.000000000,5785.000000000,4828.000000000,0.000000000,1.335144043,1.953125000,7.995605469,0.000000000,0.000000000,0.000000000,0.000000000,96831.000000000,1718298470.822934628,2.281799316,2.331542969,2.261810303,2.124328613,0.000000000,0.000000000,0.717163086,0.152587891,0.488281250,0.222167969,0.117492676,0.105743408,0.000000000,0.000000000,0.000000000,0.000000000,0.000000000,0.000000000,0.000000000,0.000000000,0.000000000,41.000000000,0.000000000,0.000000000,0.017395020,0.072326660,0.195922852,11.649780273,26.000000000
1718298470.826290,-1.034545898,1.228637695,10.807800293,-0.930834949,-0.021287683,0.001948492,-0.003906250,-0.009948730,-0.448760986,11.659851074,9.639739990,0.000000000,0.000000000,0.000000000,0.000000000,0.000000000,0.000000000,0.000000000,0.000000000,0.000000000,0.000000000,0.000000000,0.000000000,0.000000000,0.000000000,0.000000000,0.000000000,0.000000000,0.000000000,0.000000000,0.000000000,0.000000000,0.000000000,0.000000000,0.000000000,0.000000000,0.000000000,0.000000000,0.000000000,0.000000000,0.000000000,0.000000000,0.000000000,0.000000000,0.000000000,5500.000000000,5085.000000000,5771.000000000,4814.000000000,0.000000000,1.335144043,1.953125000,7.995605469,0.000000000,0.000000000,0.000000000,0.000000000,96832.000000000,1718298470.825947046,2.309570313,2.293395996,2.257080078,2.130126953,0.000000000,0.000000000,0.717163086,0.152587891,0.488281250,0.255279541,0.135650635,0.127105713,0.000000000,0.000000000,0.000000000,0.000000000,0.000000000,0.000000000,0.000000000,0.000000000,0.000000000,41.000000000,0.000000000,0.000000000,0.020141602,0.075988770,0.205078125,11.659851074,26.000000000
1718298470.836859,-0.678405762,1.534423828,10.773010254,-0.933861196,-0.019391587,0.004922568,-0.002166748,-0.009765625,-0.450103760,11.639709473,9.932708740,0.000000000,0.000000000,0.000000000,0.000000000,0.000000000,0.000000000,0.000000000,0.000000000,0.000000000,0.000000000,0.000000000,0.000000000,0.000000000,0.000000000,0.000000000,0.000000000,0.000000000,0.000000000,0.000000000,0.000000000,0.000000000,0.000000000,0.000000000,0.000000000,0.000000000,0.000000000,0.000000000,0.000000000,0.000000000,0.000000000,0.000000000,0.000000000,0.000000000,0.000000000,5571.000000000,5085.000000000,5771.000000000,4842.000000000,0.007629395,1.335144043,1.953125000,7.995605469,0.000000000,0.000000000,0.000000000,0.000000000,96833.000000000,1718298470.836491585,2.402801514,2.229003906,2.307128906,2.073516846,0.000000000,0.000000000,0.717163086,0.152587891,0.488281250,0.301208496,0.167694092,0.136718750,0.000000000,0.000000000,0.000000000,0.000000000,0.000000000,0.000000000,0.000000000,0.000000000,0.000000000,41.000000000,0.000000000,0.000000000,0.014648438,0.081481934,0.212402344,11.639709473,10.000000000
1718298470.844509,-0.429382324,1.102294922,10.598144531,-0.936682224,-0.017350279,0.008024907,-0.000335693,-0.009552002,-0.451354980,11.649780273,10.987854004,0.000000000,0.000000000,0.000000000,0.000000000,0.000000000,0.000000000,0.000000000,0.000000000,0.000000000,0.000000000,0.000000000,0.000000000,0.000000000,0.000000000,0.000000000,0.000000000,0.000000000,0.000000000,0.000000000,0.000000000,0.000000000,0.000000000,0.000000000,0.000000000,0.000000000,0.000000000,0.000000000,0.000000000,0.000000000,0.000000000,0.000000000,0.000000000,0.000000000,0.000000000,5571.000000000,5071.000000000,5800.000000000,4785.000000000,0.007629395,1.335144043,1.953125000,7.995605469,0.000000000,0.000000000,0.000000000,0.000000000,96834.000000000,1718298470.843497276,2.470550537,2.190093994,2.330932617,2.021179199,0.000000000,0.000000000,0.717163086,0.152587891,0.488281250,0.326843262,0.187988281,0.143127441,0.000000000,0.000000000,0.000000000,0.000000000,0.000000000,0.000000000,0.000000000,0.000000000,0.000000000,41.000000000,0.000000000,0.000000000,0.007324219,0.084228516,0.216064453,11.649780273,10.000000000
1718298470.854756,-0.314025879,0.553894043,10.810546875,-0.940046370,-0.015107238,0.010960614,0.001464844,-0.009216309,-0.452850342,11.649780273,10.782623291,0.000000000,0.000000000,0.000000000,0.000000000,0.000000000,0.000000000,0.000000000,0.000000000,0.000000000,0.000000000,0.000000000,0.000000000,0.000000000,0.000000000,0.000000000,0.000000000,0.000000000,0.000000000,0.000000000,0.000000000,0.000000000,0.000000000,0.000000000,0.000000000,0.000000000,0.000000000,0.000000000,0.000000000,0.000000000,0.000000000,0.000000000,0.000000000,0.000000000,0.000000000,5571.000000000,5071.000000000,5800.000000000,4785.000000000,0.007629395,1.335144043,1.953125000,7.995605469,0.000000000,0.000000000,0.000000000,0.000000000,96835.000000000,1718298470.853988409,2.466888428,2.190093994,2.307739258,2.038879395,0.000000000,0.000000000,0.717163086,0.152587891,0.488281250,0.303344727,0.201873779,0.150604248,0.000000000,0.000000000,0.000000000,0.000000000,0.000000000,0.000000000,0.000000000,0.000000000,0.000000000,41.000000000,0.000000000,0.000000000,0.007324219,0.086059570,0.226135254,11.649780273,10.000000000
1718298470.863823,-0.026550293,0.584106445,11.049499512,-0.942998648,-0.012747427,0.013967155,0.003326416,-0.008850098,-0.454162598,11.639709473,10.518646240,0.000000000,0.000000000,0.000000000,0.000000000,0.000000000,0.000000000,0.000000000,0.000000000,0.000000000,0.000000000,0.000000000,0.000000000,0.000000000,0.000000000,0.000000000,0.000000000,0.000000000,0.000000000,0.000000000,0.000000000,0.000000000,0.000000000,0.000000000,0.000000000,0.000000000,0.000000000,0.000000000,0.000000000,0.000000000,0.000000000,0.000000000,0.000000000,0.000000000,0.000000000,5600.000000000,5071.000000000,5714.000000000,4785.000000000,0.007629395,1.335144043,1.953125000,7.995605469,0.000000000,0.000000000,0.000000000,0.000000000,96836.000000000,1718298470.863031149,2.418518066,2.240753174,2.218170166,2.115936279,0.000000000,0.000000000,0.717163086,0.152587891,0.488281250,0.265960693,0.238189697,0.165557861,0.000000000,0.000000000,0.000000000,0.000000000,0.000000000,0.000000000,0.000000000,0.000000000,0.000000000,41.000000000,0.000000000,0.000000000,0.010070801,0.083312988,0.236206055,11.639709473,10.000000000
1718298470.874779,0.252685547,2.442626953,11.054992676,-0.945811570,-0.010353416,0.016883887,0.005157471,-0.008453369,-0.455413818,11.649780273,9.844970703,0.000000000,0.000000000,0.000000000,0.000000000,0.000000000,0.000000000,0.000000000,0.000000000,0.000000000,0.000000000,0.000000000,0.000000000,0.000000000,0.000000000,0.000000000,0.000000000,0.000000000,0.000000000,0.000000000,0.000000000,0.000000000,0.000000000,0.000000000,0.000000000,0.000000000,0.000000000,0.000000000,0.000000000,0.000000000,0.000000000,0.000000000,0.000000000,0.000000000,0.000000000,5714.000000000,5071.000000000,5800.000000000,4742.000000000,0.007629395,1.335144043,1.953125000,7.995605469,0.000000000,0.000000000,0.000000000,0.000000000,96837.000000000,1718298470.873991013,2.447052002,2.196044922,2.238769531,2.104034424,0.000000000,0.000000000,0.717163086,0.152587891,0.488281250,0.244598389,0.256347656,0.202941895,0.000000000,0.000000000,0.000000000,0.000000000,0.000000000,0.000000000,0.000000000,0.000000000,0.000000000,41.000000000,0.000000000,0.000000000,0.011901855,0.082397461,0.244445801,11.649780273,10.000000000
1718298470.885557,0.374450684,1.949157715,10.337219238,-0.948483288,-0.007955485,0.019520411,0.006866455,-0.007995605,-0.456604004,11.639709473,9.317779541,0.000000000,0.000000000,0.000000000,0.000000000,0.000000000,0.000000000,0.000000000,0.000000000,0.000000000,0.000000000,0.000000000,0.000000000,0.000000000,0.000000000,0.000000000,0.000000000,0.000000000,0.000000000,0.000000000,0.000000000,0.000000000,0.000000000,0.000000000,0.000000000,0.000000000,0.000000000,0.000000000,0.000000000,0.000000000,0.000000000,0.000000000,0.000000000,0.000000000,0.000000000,5800.000000000,5014.000000000,5728.000000000,4685.000000000,0.015258789,1.335144043,1.953125000,7.995605469,0.000000000,0.000000000,0.000000000,0.000000000,96838.000000000,1718298470.884691000,2.489166260,2.155303955,2.280426025,2.052612305,0.000000000,0.000000000,0.717163086,0.152587891,0.488281250,0.299072266,0.252075195,0.222167969,0.000000000,0.000000000,0.000000000,0.000000000,0.000000000,0.000000000,0.000000000,0.000000000,0.000000000,41.000000000,0.000000000,0.000000000,0.007324219,0.085144043,0.249023438,11.639709473,10.000000000
1718298470.895867,0.212402344,0.146484375,9.249572754,-0.951636672,-0.005819774,0.022018779,0.008453369,-0.007629395,-0.458007813,11.639709473,10.108947754,0.000000000,0.000000000,0.000000000,0.000000000,0.000000000,0.000000000,0.000000000,0.000000000,0.000000000,0.000000000,0.000000000,0.000000000,0.000000000,0.000000000,0.000000000,0.000000000,0.000000000,0.000000000,0.000000000,0.000000000,0.000000000,0.000000000,0.000000000,0.000000000,0.000000000,0.000000000,0.000000000,0.000000000,0.000000000,0.000000000,0.000000000,0.000000000,0.000000000,0.000000000,5800.000000000,5014.000000000,5728.000000000,4714.000000000,0.015258789,1.335144043,1.953125000,7.995605469,0.000000000,0.000000000,0.000000000,0.000000000,96839.000000000,1718298470.894706011,2.465057373,2.205352783,2.259216309,2.053680420,0.000000000,0.000000000,0.717163086,0.152587891,0.488281250,0.294799805,0.218963623,0.221099854,0.000000000,0.000000000,0.000000000,0.000000000,0.000000000,0.000000000,0.000000000,0.000000000,0.000000000,41.000000000,0.000000000,0.000000000,0.000915527,0.093383789,0.255432129,11.639709473,10.000000000
1718298470.916160,-0.305786133,-1.658020020,10.503845215,-0.957119286,-0.002093891,0.026184225,0.011138916,-0.006958008,-0.460449219,11.639709473,9.082794189,0.000000000,0.000000000,0.000000000,0.000000000,0.000000000,0.000000000,0.000000000,0.000000000,0.000000000,0.000000000,0.000000000,0.000000000,0.000000000,0.000000000,0.000000000,0.000000000,0.000000000,0.000000000,0.000000000,0.000000000,0.000000000,0.000000000,0.000000000,0.000000000,0.000000000,0.000000000,0.000000000,0.000000000,0.000000000,0.000000000,0.000000000,0.000000000,0.000000000,0.000000000,5742.000000000,5028.000000000,5642.000000000,4714.000000000,0.022888184,1.335144043,1.953125000,7.995605469,0.000000000,0.000000000,0.000000000,0.000000000,96840.000000000,1718298470.914667606,2.394866943,2.245941162,2.215118408,2.122192383,0.000000000,0.000000000,0.717163086,0.167846680,0.488281250,0.167694092,0.173034668,0.256347656,0.000000000,0.000000000,0.000000000,0.000000000,0.000000000,0.000000000,0.000000000,0.000000000,0.000000000,41.000000000,0.000000000,0.000000000,0.001831055,0.091552734,0.266418457,11.639709473,10.000000000
1718298470.925344,-0.004577637,-0.480651855,11.146545410,-0.960065961,-0.000588134,0.027419109,0.012023926,-0.006591797,-0.461761475,11.659851074,9.698486328,0.000000000,0.000000000,0.000000000,0.000000000,0.000000000,0.000000000,0.000000000,0.000000000,0.000000000,0.000000000,0.000000000,0.000000000,0.000000000,0.000000000,0.000000000,0.000000000,0.000000000,0.000000000,0.000000000,0.000000000,0.000000000,0.000000000,0.000000000,0.000000000,0.000000000,0.000000000,0.000000000,0.000000000,0.000000000,0.000000000,0.000000000,0.000000000,0.000000000,0.000000000,5814.000000000,4971.000000000,5671.000000000,4700.000000000,0.022888184,1.335144043,1.953125000,7.995605469,0.000000000,0.000000000,0.000000000,0.000000000,96841.000000000,1718298470.924072504,2.396240234,2.185363770,2.287750244,2.116851807,0.000000000,0.000000000,0.717163086,0.167846680,0.488281250,0.136718750,0.159149170,0.272369385,0.000000000,0.000000000,0.000000000,0.000000000,0.000000000,0.000000000,0.000000000,0.000000000,0.000000000,41.000000000,0.000000000,0.000000000,-0.000915527,0.086059570,0.270996094,11.659851074,10.000000000
1718298470.935386,0.191345215,1.172790527,11.953125000,-0.962809741,0.000499262,0.028111119,0.012573242,-0.006286621,-0.462982178,11.649780273,9.903717041,0.000000000,0.000000000,0.000000000,0.000000000,0.000000000,0.000000000,0.000000000,0.000000000,0.000000000,0.000000000,0.000000000,0.000000000,0.000000000,0.000000000,0.000000000,0.000000000,0.000000000,0.000000000,0.000000000,0.000000000,0.000000000,0.000000000,0.000000000,0.000000000,0.000000000,0.000000000,0.000000000,0.000000000,0.000000000,0.000000000,0.000000000,0.000000000,0.000000000,0.000000000,5800.000000000,5042.000000000,5642.000000000,4714.000000000,0.022888184,1.335144043,1.953125000,7.995605469,0.000000000,0.000000000,0.000000000,0.000000000,96842.000000000,1718298470.934141159,2.417907715,2.140655518,2.366485596,2.058715820,0.000000000,0.000000000,0.717163086,0.167846680,0.488281250,0.107879639,0.146331787,0.302276611,0.000000000,0.000000000,0.000000000,0.000000000,0.000000000,0.000000000,0.000000000,0.000000000,0.000000000,41.000000000,0.000000000,0.000000000,-0.007324219,0.083312988,0.276489258,11.649780273,10.000000000
1718298470.945266,0.327758789,2.276000977,11.568603516,-0.965209961,0.001269408,0.028069237,0.012725830,-0.005950928,-0.464050293,11.639709473,9.317779541,0.000000000,0.000000000,0.000000000,0.000000000,0.000000000,0.000000000,0.000000000,0.000000000,0.000000000,0.000000000,0.000000000,0.000000000,0.000000000,0.000000000,0.000000000,0.000000000,0.000000000,0.000000000,0.000000000,0.000000000,0.000000000,0.000000000,0.000000000,0.000000000,0.000000000,0.000000000,0.000000000,0.000000000,0.000000000,0.000000000,0.000000000,0.000000000,0.000000000,0.000000000,5757.000000000,5042.000000000,5642.000000000,4685.000000000,0.022888184,1.335144043,1.953125000,7.995605469,0.000000000,0.000000000,0.000000000,0.000000000,96843.000000000,1718298470.944444180,2.367706299,2.172393799,2.366333008,2.083740234,0.000000000,0.000000000,0.717163086,0.167846680,0.488281250,0.050201416,0.098266602,0.308685303,0.000000000,0.000000000,0.000000000,0.000000000,0.000000000,0.000000000,0.000000000,0.000000000,0.000000000,41.000000000,0.000000000,0.000000000,-0.010986328,0.083312988,0.277404785,11.639709473,10.000000000
1718298470.954237,0.108947754,2.221069336,10.288696289,-0.967677951,0.001745414,0.026939282,0.012329102,-0.005493164,-0.465148926,11.639709473,10.489654541,0.000000000,0.000000000,0.000000000,0.000000000,0.000000000,0.000000000,0.000000000,0.000000000,0.000000000,0.000000000,0.000000000,0.000000000,0.000000000,0.000000000,0.000000000,0.000000000,0.000000000,0.000000000,0.000000000,0.000000000,0.000000000,0.000000000,0.000000000,0.000000000,0.000000000,0.000000000,0.000000000,0.000000000,0.000000000,0.000000000,0.000000000,0.000000000,0.000000000,0.000000000,5757.000000000,5042.000000000,5642.000000000,4685.000000000,0.022888184,1.335144043,1.953125000,7.995605469,0.000000000,0.000000000,0.000000000,0.000000000,96844.000000000,1718298470.953314781,2.238159180,2.264404297,2.298583984,2.186126709,0.000000000,0.000000000,0.717163086,0.167846680,0.488281250,0.011749268,0.051269531,0.332183838,0.000000000,0.000000000,0.000000000,0.000000000,0.000000000,0.000000000,0.000000000,0.000000000,0.000000000,41.000000000,0.000000000,0.000000000,-0.010070801,0.086975098,0.283813477,11.639709473,10.000000000
1718298470.975574,-1.152648926,-1.433715820,8.191223145,-0.971724212,0.001645844,0.022461165,0.010314941,-0.004516602,-0.466949463,11.649780273,9.698486328,0.000000000,0.000000000,0.000000000,0.000000000,0.000000000,0.000000000,0.000000000,0.000000000,0.000000000,0.000000000,0.000000000,0.000000000,0.000000000,0.000000000,0.000000000,0.000000000,0.000000000,0.000000000,0.000000000,0.000000000,0.000000000,0.000000000,0.000000000,0.000000000,0.000000000,0.000000000,0.000000000,0.000000000,0.000000000,0.000000000,0.000000000,0.000000000,0.000000000,0.000000000,5771.000000000,5014.000000000,5614.000000000,4700.000000000,0.045776367,1.335144043,1.953125000,7.995605469,0.000000000,0.000000000,0.000000000,0.000000000,96845.000000000,1718298470.974397182,2.166900635,2.203979492,2.389526367,2.230529785,0.000000000,0.000000000,0.701904297,0.167846680,0.488281250,-0.242462158,-0.005340576,0.355682373,0.000000000,0.000000000,0.000000000,0.000000000,0.000000000,0.000000000,0.000000000,0.000000000,0.000000000,41.000000000,0.000000000,0.000000000,-0.018310547,0.081481934,0.290222168,11.649780273,10.000000000
1718298470.986116,-1.030883789,-1.492309570,8.714904785,-0.973440468,0.001272121,0.019629138,0.008972168,-0.004028320,-0.467712402,11.639709473,10.284423828,0.000000000,0.000000000,0.000000000,0.000000000,0.000000000,0.000000000,0.000000000,0.000000000,0.000000000,0.000000000,0.000000000,0.000000000,0.000000000,0.000000000,0.000000000,0.000000000,0.000000000,0.000000000,0.000000000,0.000000000,0.000000000,0.000000000,0.000000000,0.000000000,0.000000000,0.000000000,0.000000000,0.000000000,0.000000000,0.000000000,0.000000000,0.000000000,0.000000000,0.000000000,5685.000000000,5028.000000000,5685.000000000,4742.000000000,0.045776367,1.335144043,1.953125000,7.995605469,0.000000000,0.000000000,0.000000000,0.000000000,96846.000000000,1718298470.985112667,2.227630615,2.125396729,2.490692139,2.140502930,0.000000000,0.000000000,0.701904297,0.167846680,0.503540039,-0.357818604,-0.017089844,0.355682373,0.000000000,0.000000000,0.000000000,0.000000000,0.000000000,0.000000000,0.000000000,0.000000000,0.000000000,41.000000000,0.000000000,0.000000000,-0.020141602,0.082397461,0.293884277,11.639709473,10.000000000
1718298470.994543,-0.279235840,-0.759887695,10.174255371,-0.975295007,0.000999283,0.016604107,0.007568359,-0.003448486,-0.468536377,11.639709473,9.757232666,0.000000000,0.000000000,0.000000000,0.000000000,0.000000000,0.000000000,0.000000000,0.000000000,0.000000000,0.000000000,0.000000000,0.000000000,0.000000000,0.000000000,0.000000000,0.000000000,0.000000000,0.000000000,0.000000000,0.000000000,0.000000000,0.000000000,0.000000000,0.000000000,0.000000000,0.000000000,0.000000000,0.000000000,0.000000000,0.000000000,0.000000000,0.000000000,0.000000000,0.000000000,5642.000000000,5085.000000000,5728.000000000,4771.000000000,0.045776367,1.335144043,1.953125000,7.995605469,0.000000000,0.000000000,0.000000000,0.000000000,96847.000000000,1718298470.993824720,2.187347412,2.174224854,2.447662354,2.191009521,0.000000000,0.000000000,0.701904297,0.167846680,0.503540039,-0.363159180,-0.022430420,0.374908447,0.000000000,0.000000000,0.000000000,0.000000000,0.000000000,0.000000000,0.000000000,0.000000000,0.000000000,41.000000000,0.000000000,0.000000000,-0.022888184,0.081481934,0.293884277,11.639709473,10.000000000
1718298471.015364,0.332336426,1.444702148,11.325988770,-0.977903903,0.000356397,0.009766027,0.004394531,-0.002136230,-0.469696045,11.639709473,10.313415527,0.000000000,0.000000000,0.000000000,0.000000000,0.000000000,0.000000000,0.000000000,0.000000000,0.000000000,0.000000000,0.000000000,0.000000000,0.000000000,0.000000000,0.000000000,0.000000000,0.000000000,0.000000000,0.000000000,0.000000000,0.000000000,0.000000000,0.000000000,0.000000000,0.000000000,0.000000000,0.000000000,0.000000000,0.000000000,0.000000000,0.000000000,0.000000000,0.000000000,0.000000000,5642.000000000,5085.000000000,5728.000000000,4757.000000000,0.045776367,1.335144043,1.953125000,7.995605469,0.000000000,0.000000000,0.000000000,0.000000000,96848.000000000,1718298471.014451265,2.081298828,2.244567871,2.378845215,2.304229736,0.000000000,0.000000000,0.701904297,0.167846680,0.503540039,-0.339660645,0.002136230,0.422973633,0.000000000,0.000000000,0.000000000,0.000000000,0.000000000,0.000000000,0.000000000,0.000000000,0.000000000,41.000000000,0.000000000,0.000000000,-0.016479492,0.077819824,0.297546387,11.639709473,10.000000000
1718298471.025293,0.261840820,0.726013184,10.274963379,-0.979557455,0.000311165,0.006681623,0.003021240,-0.001434326,-0.470428467,11.639709473,9.375762939,0.000000000,0.000000000,0.000000000,0.000000000,0.000000000,0.000000000,0.000000000,0.000000000,0.000000000,0.000000000,0.000000000,0.000000000,0.000000000,0.000000000,0.000000000,0.000000000,0.000000000,0.000000000,0.000000000,0.000000000,0.000000000,0.000000000,0.000000000,0.000000000,0.000000000,0.000000000,0.000000000,0.000000000,0.000000000,0.000000000,0.000000000,0.000000000,0.000000000,0.000000000,5614.000000000,5028.000000000,5742.000000000,4757.000000000,0.045776367,1.335144043,1.953125000,7.995605469,0.000000000,0.000000000,0.000000000,0.000000000,96849.000000000,1718298471.024159431,2.124938965,2.207641602,2.405090332,2.291107178,0.000000000,0.000000000,0.701904297,0.167846680,0.503540039,-0.311889648,0.001068115,0.437927246,0.000000000,0.000000000,0.000000000,0.000000000,0.000000000,0.000000000,0.000000000,0.000000000,0.000000000,41.000000000,0.000000000,0.000000000,-0.018310547,0.079650879,0.296630859,11.639709473,10.000000000
1718298471.034918,0.265502930,-1.014404297,8.332214355,-0.981144845,0.000515841,0.003945430,0.001861572,-0.000701904,-0.471130371,11.629943848,10.196685791,0.000000000,0.000000000,0.000000000,0.000000000,0.000000000,0.000000000,0.000000000,0.000000000,0.000000000,0.000000000,0.000000000,0.000000000,0.000000000,0.000000000,0.000000000,0.000000000,0.000000000,0.000000000,0.000000000,0.000000000,0.000000000,0.000000000,0.000000000,0.000000000,0.000000000,0.000000000,0.000000000,0.000000000,0.000000000,0.000000000,0.000000000,0.000000000,0.000000000,0.000000000,5600.000000000,4985.000000000,5814.000000000,4785.000000000,0.045776367,1.335144043,1.953125000,7.995605469,0.000000000,0.000000000,0.000000000,0.000000000,96850.000000000,1718298471.034302473,2.222900391,2.132415771,2.474060059,2.210540771,0.000000000,0.000000000,0.701904297,0.183105469,0.503540039,-0.308685303,0.001068115,0.413360596,0.000000000,0.000000000,0.000000000,0.000000000,0.000000000,0.000000000,0.000000000,0.000000000,0.000000000,41.000000000,0.000000000,0.000000000,-0.021057129,0.080566406,0.294799805,11.629943848,10.000000000
1718298471.045157,0.364379883,-0.632629395,8.768920898,-0.982319951,0.000859861,0.001478172,0.000854492,0.000030518,-0.471649170,11.629943848,10.255432129,0.000000000,0.000000000,0.000000000,0.000000000,0.000000000,0.000000000,0.000000000,0.000000000,0.000000000,0.000000000,0.000000000,0.000000000,0.000000000,0.000000000,0.000000000,0.000000000,0.000000000,0.000000000,0.000000000,0.000000000,0.000000000,0.000000000,0.000000000,0.000000000,0.000000000,0.000000000,0.000000000,0.000000000,0.000000000,0.000000000,0.000000000,0.000000000,0.000000000,0.000000000,5585.000000000,5014.000000000,5828.000000000,4771.000000000,0.053405762,1.335144043,1.953125000,7.995605469,0.000000000,0.000000000,0.000000000,0.000000000,96851.000000000,1718298471.043970585,2.240142822,2.135772705,2.462768555,2.217254639,0.000000000,0.000000000,0.701904297,0.183105469,0.503540039,-0.335388184,0.051269531,0.422973633,0.000000000,0.000000000,0.000000000,0.000000000,0.000000000,0.000000000,0.000000000,0.000000000,0.000000000,41.000000000,0.000000000,0.000000000,-0.017395020,0.079650879,0.291137695,11.629943848,10.000000000
1718298471.059042,0.678405762,0.686645508,10.350952148,-0.983774900,0.001427601,-0.000695685,0.000030518,0.000793457,-0.472290039,11.629943848,10.489654541,0.000000000,0.000000000,0.000000000,0.000000000,0.000000000,0.000000000,0.000000000,0.000000000,0.000000000,0.000000000,0.000000000,0.000000000,0.000000000,0.000000000,0.000000000,0.000000000,0.000000000,0.000000000,0.000000000,0.000000000,0.000000000,0.000000000,0.000000000,0.000000000,0.000000000,0.000000000,0.000000000,0.000000000,0.000000000,0.000000000,0.000000000,0.000000000,0.000000000,0.000000000,5557.000000000,5014.000000000,5771.000000000,4800.000000000,0.053405762,1.335144043,1.953125000,7.995605469,0.000000000,0.000000000,0.000000000,0.000000000,96852.000000000,1718298471.058070660,2.192687988,2.190856934,2.384948730,2.302551270,0.000000000,0.000000000,0.701904297,0.183105469,0.503540039,-0.289459229,0.111083984,0.462493896,0.000000000,0.000000000,0.000000000,0.000000000,0.000000000,0.000000000,0.000000000,0.000000000,0.000000000,41.000000000,0.000000000,0.000000000,-0.010986328,0.075988770,0.291137695,11.629943848,10.000000000
1718298471.069091,0.558471680,1.813659668,10.812377930,-0.984885931,0.002144813,-0.002328267,-0.000518799,0.001495361,-0.472778320,11.639709473,10.665130615,0.000000000,0.000000000,0.000000000,0.000000000,0.000000000,0.000000000,0.000000000,0.000000000,0.000000000,0.000000000,0.000000000,0.000000000,0.000000000,0.000000000,0.000000000,0.000000000,0.000000000,0.000000000,0.000000000,0.000000000,0.000000000,0.000000000,0.000000000,0.000000000,0.000000000,0.000000000,0.000000000,0.000000000,0.000000000,0.000000000,0.000000000,0.000000000,0.000000000,0.000000000,5557.000000000,5014.000000000,5771.000000000,4800.000000000,0.053405762,1.335144043,1.953125000,7.995605469,0.000000000,0.000000000,0.000000000,0.000000000,96853.000000000,1718298471.068323135,2.203979492,2.200927734,2.353515625,2.325286865,0.000000000,0.000000000,0.701904297,0.183105469,0.503540039,-0.158081055,0.129241943,0.494537354,0.000000000,0.000000000,0.000000000,0.000000000,0.000000000,0.000000000,0.000000000,0.000000000,0.000000000,41.000000000,0.000000000,0.000000000,-0.007324219,0.073242188,0.289306641,11.639709473,10.000000000
1718298471.078130,0.284729004,2.335510254,9.834594727,-0.985721946,0.003034031,-0.003638628,-0.000885010,0.002197266,-0.473144531,11.629943848,10.284423828,0.000000000,0.000000000,0.000000000,0.000000000,0.000000000,0.000000000,0.000000000,0.000000000,0.000000000,0.000000000,0.000000000,0.000000000,0.000000000,0.000000000,0.000000000,0.000000000,0.000000000,0.000000000,0.000000000,0.000000000,0.000000000,0.000000000,0.000000000,0.000000000,0.000000000,0.000000000,0.000000000,0.000000000,0.000000000,0.000000000,0.000000000,0.000000000,0.000000000,0.000000000,5557.000000000,5042.000000000,5771.000000000,4800.000000000,0.053405762,1.335144043,1.953125000,7.995605469,0.000000000,0.000000000,0.000000000,0.000000000,96854.000000000,1718298471.077363968,2.222747803,2.194519043,2.350769043,2.321472168,0.000000000,0.000000000,0.701904297,0.183105469,0.503540039,-0.087585449,0.106811523,0.499877930,0.000000000,0.000000000,0.000000000,0.000000000,0.000000000,0.000000000,0.000000000,0.000000000,0.000000000,41.000000000,0.000000000,0.000000000,-0.008239746,0.078735352,0.285644531,11.629943848,10.000000000
1718298471.094090,0.833129883,2.161560059,9.996643066,-0.987120032,0.005169287,-0.005206669,-0.001068115,0.003509521,-0.473754883,11.629943848,10.489654541,0.000000000,0.000000000,0.000000000,0.000000000,0.000000000,0.000000000,0.000000000,0.000000000,0.000000000,0.000000000,0.000000000,0.000000000,0.000000000,0.000000000,0.000000000,0.000000000,0.000000000,0.000000000,0.000000000,0.000000000,0.000000000,0.000000000,0.000000000,0.000000000,0.000000000,0.000000000,0.000000000,0.000000000,0.000000000,0.000000000,0.000000000,0.000000000,0.000000000,0.000000000,5514.000000000,4985.000000000,5785.000000000,4842.000000000,0.053405762,1.335144043,1.953125000,7.995605469,0.000000000,0.000000000,0.000000000,0.000000000,96855.000000000,1718298471.093460321,2.234344482,2.223358154,2.322387695,2.333221436,0.000000000,0.000000000,0.701904297,0.183105469,0.503540039,-0.105743408,0.103607178,0.497741699,0.000000000,0.000000000,0.000000000,0.000000000,0.000000000,0.000000000,0.000000000,0.000000000,0.000000000,41.000000000,0.000000000,0.000000000,-0.010986328,0.087890625,0.281066895,11.629943848,10.000000000
1718298471.109035,0.451354980,1.720275879,11.184082031,-0.987749755,0.006221807,-0.005567879,-0.000976563,0.004058838,-0.474029541,11.629943848,11.045837402,0.000000000,0.000000000,0.000000000,0.000000000,0.000000000,0.000000000,0.000000000,0.000000000,0.000000000,0.000000000,0.000000000,0.000000000,0.000000000,0.000000000,0.000000000,0.000000000,0.000000000,0.000000000,0.000000000,0.000000000,0.000000000,0.000000000,0.000000000,0.000000000,0.000000000,0.000000000,0.000000000,0.000000000,0.000000000,0.000000000,0.000000000,0.000000000,0.000000000,0.000000000,5585.000000000,5000.000000000,5842.000000000,4842.000000000,0.068664551,1.335144043,1.953125000,7.995605469,0.000000000,0.000000000,0.000000000,0.000000000,96856.000000000,1718298471.108412504,2.167510986,2.313079834,2.224884033,2.420043945,0.000000000,0.000000000,0.701904297,0.183105469,0.503540039,0.023498535,0.162353516,0.540466309,0.000000000,0.000000000,0.000000000,0.000000000,0.000000000,0.000000000,0.000000000,0.000000000,0.000000000,41.000000000,0.000000000,0.000000000,-0.005493164,0.086059570,0.283813477,11.629943848,10.000000000
1718298471.115619,-0.568542480,-0.437622070,11.054992676,-0.988030732,0.007349588,-0.005275344,-0.000579834,0.004486084,-0.474151611,11.629943848,10.723876953,0.000000000,0.000000000,0.000000000,0.000000000,0.000000000,0.000000000,0.000000000,0.000000000,0.000000000,0.000000000,0.000000000,0.000000000,0.000000000,0.000000000,0.000000000,0.000000000,0.000000000,0.000000000,0.000000000,0.000000000,0.000000000,0.000000000,0.000000000,0.000000000,0.000000000,0.000000000,0.000000000,0.000000000,0.000000000,0.000000000,0.000000000,0.000000000,0.000000000,0.000000000,5585.000000000,5000.000000000,5842.000000000,4842.000000000,0.068664551,1.335144043,1.953125000,7.995605469,0.000000000,0.000000000,0.000000000,0.000000000,96857.000000000,1718298471.114763260,2.190399170,2.331237793,2.187805176,2.417755127,0.000000000,0.000000000,0.701904297,0.183105469,0.503540039,0.059814453,0.160217285,0.545806885,0.000000000,0.000000000,0.000000000,0.000000000,0.000000000,0.000000000,0.000000000,0.000000000,0.000000000,41.000000000,0.000000000,0.000000000,-0.004577637,0.083312988,0.281982422,11.629943848,10.000000000
1718298471.134677,-0.626220703,-0.517272949,9.721984863,-0.988586843,0.009833188,-0.003496586,0.000793457,0.005157471,-0.474395752,11.649780273,10.694885254,0.000000000,0.000000000,0.000000000,0.000000000,0.000000000,0.000000000,0.000000000,0.000000000,0.000000000,0.000000000,0.000000000,0.000000000,0.000000000,0.000000000,0.000000000,0.000000000,0.000000000,0.000000000,0.000000000,0.000000000,0.000000000,0.000000000,0.000000000,0.000000000,0.000000000,0.000000000,0.000000000,0.000000000,0.000000000,0.000000000,0.000000000,0.000000000,0.000000000,0.000000000,5571.000000000,5028.000000000,5757.000000000,4914.000000000,0.068664551,1.335144043,1.953125000,7.995605469,0.000000000,0.000000000,0.000000000,0.000000000,96858.000000000,1718298471.134191275,2.277526855,2.297515869,2.227630615,2.344665527,0.000000000,0.000000000,0.686645508,0.183105469,0.503540039,-0.037384033,0.153808594,0.523376465,0.000000000,0.000000000,0.000000000,0.000000000,0.000000000,0.000000000,0.000000000,0.000000000,0.000000000,41.000000000,0.000000000,0.000000000,0.000915527,0.091552734,0.279235840,11.649780273,10.000000000
1718298471.144767,0.090637207,3.157653809,11.306762695,-0.988724172,0.011040489,-0.002414701,0.001556396,0.005432129,-0.474456787,11.649780273,9.698486328,0.000000000,0.000000000,0.000000000,0.000000000,0.000000000,0.000000000,0.000000000,0.000000000,0.000000000,0.000000000,0.000000000,0.000000000,0.000000000,0.000000000,0.000000000,0.000000000,0.000000000,0.000000000,0.000000000,0.000000000,0.000000000,0.000000000,0.000000000,0.000000000,0.000000000,0.000000000,0.000000000,0.000000000,0.000000000,0.000000000,0.000000000,0.000000000,0.000000000,0.000000000,5528.000000000,5028.000000000,5657.000000000,4900.000000000,0.076293945,1.335144043,1.953125000,7.995605469,0.000000000,0.000000000,0.000000000,0.000000000,96859.000000000,1718298471.144092083,2.245941162,2.360992432,2.196502686,2.363891602,0.000000000,0.000000000,0.686645508,0.183105469,0.503540039,0.016021729,0.169830322,0.553283691,0.000000000,0.000000000,0.000000000,0.000000000,0.000000000,0.000000000,0.000000000,0.000000000,0.000000000,41.000000000,0.000000000,0.000000000,-0.001831055,0.095214844,0.277404785,11.649780273,2.000000000
1718298471.155615,0.562133789,2.438049316,10.632019043,-0.988581836,0.011950521,-0.001240212,0.002288818,0.005554199,-0.474395752,11.629943848,10.577392578,0.000000000,0.000000000,0.000000000,0.000000000,0.000000000,0.000000000,0.000000000,0.000000000,0.000000000,0.000000000,0.000000000,0.000000000,0.000000000,0.000000000,0.000000000,0.000000000,0.000000000,0.000000000,0.000000000,0.000000000,0.000000000,0.000000000,0.000000000,0.000000000,0.000000000,0.000000000,0.000000000,0.000000000,0.000000000,0.000000000,0.000000000,0.000000000,0.000000000,0.000000000,5528.000000000,5028.000000000,5657.000000000,4900.000000000,0.076293945,1.335144043,1.953125000,7.995605469,0.000000000,0.000000000,0.000000000,0.000000000,96860.000000000,1718298471.155107498,2.199859619,2.421112061,2.150573730,2.400512695,0.000000000,0.000000000,0.686645508,0.183105469,0.503540039,0.155944824,0.124969482,0.561828613,0.000000000,0.000000000,0.000000000,0.000000000,0.000000000,0.000000000,0.000000000,0.000000000,0.000000000,41.000000000,0.000000000,0.000000000,0.000915527,0.094299316,0.278320313,11.629943848,2.000000000
1718298471.168347,0.853271484,0.847778320,9.285278320,-0.988297403,0.012624834,0.000270220,0.003112793,0.005493164,-0.474273682,11.639709473,10.636138916,0.000000000,0.000000000,0.000000000,0.000000000,0.000000000,0.000000000,0.000000000,0.000000000,0.000000000,0.000000000,0.000000000,0.000000000,0.000000000,0.000000000,0.000000000,0.000000000,0.000000000,0.000000000,0.000000000,0.000000000,0.000000000,0.000000000,0.000000000,0.000000000,0.000000000,0.000000000,0.000000000,0.000000000,0.000000000,0.000000000,0.000000000,0.000000000,0.000000000,0.000000000,5600.000000000,5042.000000000,5600.000000000,4914.000000000,0.083923340,1.335144043,1.953125000,7.995605469,0.000000000,0.000000000,0.000000000,0.000000000,96861.000000000,1718298471.167614460,2.233581543,2.399749756,2.187042236,2.362670898,0.000000000,0.000000000,0.686645508,0.183105469,0.503540039,0.166625977,0.037384033,0.552215576,0.000000000,0.000000000,0.000000000,0.000000000,0.000000000,0.000000000,0.000000000,0.000000000,0.000000000,41.000000000,0.000000000,0.000000000,0.008239746,0.086059570,0.281066895,11.639709473,2.000000000
1718298471.175115,0.967712402,1.806335449,9.768676758,-0.988497794,0.012885727,0.001653735,0.003784180,0.005279541,-0.474365234,11.609802246,10.958099365,0.000000000,0.000000000,0.000000000,0.000000000,0.000000000,0.000000000,0.000000000,0.000000000,0.000000000,0.000000000,0.000000000,0.000000000,0.000000000,0.000000000,0.000000000,0.000000000,0.000000000,0.000000000,0.000000000,0.000000000,0.000000000,0.000000000,0.000000000,0.000000000,0.000000000,0.000000000,0.000000000,0.000000000,0.000000000,0.000000000,0.000000000,0.000000000,0.000000000,0.000000000,5600.000000000,5042.000000000,5600.000000000,4885.000000000,0.083923340,1.335144043,1.953125000,7.995605469,0.000000000,0.000000000,0.000000000,0.000000000,96862.000000000,1718298471.174409151,2.261352539,2.339019775,2.267456055,2.317352295,0.000000000,0.000000000,0.686645508,0.198364258,0.518798828,0.126037598,0.013885498,0.556488037,0.000000000,0.000000000,0.000000000,0.000000000,0.000000000,0.000000000,0.000000000,0.000000000,0.000000000,41.000000000,0.000000000,0.000000000,0.012817383,0.083312988,0.278320313,11.609802246,2.000000000
1718298471.186948,0.952148438,2.790527344,10.747375488,-0.988422334,0.012890086,0.002691831,0.004241943,0.005035400,-0.474334717,11.629943848,10.899353027,0.000000000,0.000000000,0.000000000,0.000000000,0.000000000,0.000000000,0.000000000,0.000000000,0.000000000,0.000000000,0.000000000,0.000000000,0.000000000,0.000000000,0.000000000,0.000000000,0.000000000,0.000000000,0.000000000,0.000000000,0.000000000,0.000000000,0.000000000,0.000000000,0.000000000,0.000000000,0.000000000,0.000000000,0.000000000,0.000000000,0.000000000,0.000000000,0.000000000,0.000000000,5600.000000000,5085.000000000,5600.000000000,4900.000000000,0.099182129,1.335144043,1.953125000,7.995605469,0.000000000,0.000000000,0.000000000,0.000000000,96863.000000000,1718298471.185540199,2.275695801,2.319030762,2.325439453,2.271881104,0.000000000,0.000000000,0.686645508,0.198364258,0.518798828,0.148468018,0.013885498,0.563964844,0.000000000,0.000000000,0.000000000,0.000000000,0.000000000,0.000000000,0.000000000,0.000000000,0.000000000,41.000000000,0.000000000,0.000000000,0.012817383,0.080566406,0.278320313,11.629943848,2.000000000
1718298471.201131,-0.466003418,-0.600585938,10.415039063,-0.988141596,0.012521856,0.003169084,0.004364014,0.004760742,-0.474212646,11.629943848,9.757232666,0.000000000,0.000000000,0.000000000,0.000000000,0.000000000,0.000000000,0.000000000,0.000000000,0.000000000,0.000000000,0.000000000,0.000000000,0.000000000,0.000000000,0.000000000,0.000000000,0.000000000,0.000000000,0.000000000,0.000000000,0.000000000,0.000000000,0.000000000,0.000000000,0.000000000,0.000000000,0.000000000,0.000000000,0.000000000,0.000000000,0.000000000,0.000000000,0.000000000,0.000000000,5571.000000000,5014.000000000,5557.000000000,4900.000000000,0.099182129,1.335144043,1.953125000,7.995605469,0.000000000,0.000000000,0.000000000,0.000000000,96864.000000000,1718298471.200466394,2.235565186,2.357025146,2.330017090,2.281951904,0.000000000,0.000000000,0.686645508,0.198364258,0.518798828,0.102539063,-0.002136230,0.583190918,0.000000000,0.000000000,0.000000000,0.000000000,0.000000000,0.000000000,0.000000000,0.000000000,0.000000000,41.000000000,0.000000000,0.000000000,0.008239746,0.084228516,0.275573730,11.629943848,2.000000000
1718298471.225608,-0.486145020,1.041870117,11.134643555,-0.987875462,0.009243261,-0.000471227,0.001983643,0.004180908,-0.474090576,11.629943848,10.459899902,0.000000000,0.000000000,0.000000000,0.000000000,0.000000000,0.000000000,0.000000000,0.000000000,0.000000000,0.000000000,0.000000000,0.000000000,0.000000000,0.000000000,0.000000000,0.000000000,0.000000000,0.000000000,0.000000000,0.000000000,0.000000000,0.000000000,0.000000000,0.000000000,0.000000000,0.000000000,0.000000000,0.000000000,0.000000000,0.000000000,0.000000000,0.000000000,0.000000000,0.000000000,5571.000000000,5128.000000000,5600.000000000,4957.000000000,0.114440918,1.335144043,1.953125000,7.995605469,0.000000000,0.000000000,0.000000000,0.000000000,96865.000000000,1718298471.224317312,2.077484131,2.363433838,2.418975830,2.393035889,0.000000000,0.000000000,0.671386719,0.198364258,0.503540039,-0.208282471,-0.077972412,0.599212646,0.000000000,0.000000000,0.000000000,0.000000000,0.000000000,0.000000000,0.000000000,0.000000000,0.000000000,41.000000000,0.000000000,0.000000000,0.004577637,0.085144043,0.268249512,11.629943848,2.000000000
1718298471.234894,-0.469665527,-0.585021973,10.252990723,-0.987951159,0.007891402,-0.002724481,0.000671387,0.004119873,-0.474121094,11.619873047,9.405517578,0.000000000,0.000000000,0.000000000,0.000000000,0.000000000,0.000000000,0.000000000,0.000000000,0.000000000,0.000000000,0.000000000,0.000000000,0.000000000,0.000000000,0.000000000,0.000000000,0.000000000,0.000000000,0.000000000,0.000000000,0.000000000,0.000000000,0.000000000,0.000000000,0.000000000,0.000000000,0.000000000,0.000000000,0.000000000,0.000000000,0.000000000,0.000000000,0.000000000,0.000000000,5514.000000000,5128.000000000,5600.000000000,4985.000000000,0.129699707,1.335144043,1.953125000,7.995605469,0.000000000,0.000000000,0.000000000,0.000000000,96866.000000000,1718298471.234180689,2.120666504,2.299804688,2.499389648,2.353363037,0.000000000,0.000000000,0.671386719,0.213623047,0.503540039,-0.202941895,-0.110015869,0.592803955,0.000000000,0.000000000,0.000000000,0.000000000,0.000000000,0.000000000,0.000000000,0.000000000,0.000000000,41.000000000,0.000000000,0.000000000,0.004577637,0.086059570,0.262756348,11.619873047,2.000000000
1718298471.245207,-0.267333984,-0.344238281,9.836425781,-0.987886190,0.006209023,-0.005076374,-0.000762939,0.003936768,-0.474090576,11.619873047,10.752868652,0.000000000,0.000000000,0.000000000,0.000000000,0.000000000,0.000000000,0.000000000,0.000000000,0.000000000,0.000000000,0.000000000,0.000000000,0.000000000,0.000000000,0.000000000,0.000000000,0.000000000,0.000000000,0.000000000,0.000000000,0.000000000,0.000000000,0.000000000,0.000000000,0.000000000,0.000000000,0.000000000,0.000000000,0.000000000,0.000000000,0.000000000,0.000000000,0.000000000,0.000000000,5514.000000000,5114.000000000,5728.000000000,4985.000000000,0.129699707,1.335144043,1.953125000,7.995605469,0.000000000,0.000000000,0.000000000,0.000000000,96867.000000000,1718298471.244347811,2.134704590,2.282104492,2.573394775,2.299041748,0.000000000,0.000000000,0.656127930,0.213623047,0.503540039,-0.322570801,-0.163421631,0.575714111,0.000000000,0.000000000,0.000000000,0.000000000,0.000000000,0.000000000,0.000000000,0.000000000,0.000000000,41.000000000,0.000000000,0.000000000,0.001831055,0.091552734,0.260009766,11.619873047,2.000000000
1718298471.255402,0.089721680,2.009582520,9.918823242,-0.987959504,0.004431194,-0.007862740,-0.002410889,0.003814697,-0.474121094,11.609802246,9.815216064,0.000000000,0.000000000,0.000000000,0.000000000,0.000000000,0.000000000,0.000000000,0.000000000,0.000000000,0.000000000,0.000000000,0.000000000,0.000000000,0.000000000,0.000000000,0.000000000,0.000000000,0.000000000,0.000000000,0.000000000,0.000000000,0.000000000,0.000000000,0.000000000,0.000000000,0.000000000,0.000000000,0.000000000,0.000000000,0.000000000,0.000000000,0.000000000,0.000000000,0.000000000,5514.000000000,5114.000000000,5728.000000000,4985.000000000,0.129699707,1.335144043,1.953125000,7.995605469,0.000000000,0.000000000,0.000000000,0.000000000,96868.000000000,1718298471.254576206,2.060089111,2.352447510,2.552337646,2.351989746,0.000000000,0.000000000,0.656127930,0.213623047,0.503540039,-0.325775146,-0.174102783,0.590667725,0.000000000,0.000000000,0.000000000,0.000000000,0.000000000,0.000000000,0.000000000,0.000000000,0.000000000,41.000000000,0.000000000,0.000000000,0.000000000,0.094299316,0.256347656,11.609802246,2.000000000
1718298471.275548,0.793762207,0.153808594,9.501342773,-0.987203658,0.000959843,-0.014447512,-0.006134033,0.003845215,-0.473785400,11.619873047,10.782623291,0.000000000,0.000000000,0.000000000,0.000000000,0.000000000,0.000000000,0.000000000,0.000000000,0.000000000,0.000000000,0.000000000,0.000000000,0.000000000,0.000000000,0.000000000,0.000000000,0.000000000,0.000000000,0.000000000,0.000000000,0.000000000,0.000000000,0.000000000,0.000000000,0.000000000,0.000000000,0.000000000,0.000000000,0.000000000,0.000000000,0.000000000,0.000000000,0.000000000,0.000000000,5471.000000000,5142.000000000,5814.000000000,4942.000000000,0.137329102,1.335144043,1.953125000,7.995605469,0.000000000,0.000000000,0.000000000,0.000000000,96869.000000000,1718298471.274650097,1.858215332,2.545013428,2.405700684,2.537078857,0.000000000,0.000000000,0.640869141,0.213623047,0.503540039,-0.295867920,-0.197601318,0.617370605,0.000000000,0.000000000,0.000000000,0.000000000,0.000000000,0.000000000,0.000000000,0.000000000,0.000000000,41.000000000,0.000000000,0.000000000,0.005493164,0.104370117,0.251770020,11.619873047,2.000000000
1718298471.295489,1.041870117,2.606506348,10.424194336,-0.986718833,-0.002315289,-0.020931290,-0.009765625,0.003936768,-0.473571777,11.619873047,11.309814453,0.000000000,0.000000000,0.000000000,0.000000000,0.000000000,0.000000000,0.000000000,0.000000000,0.000000000,0.000000000,0.000000000,0.000000000,0.000000000,0.000000000,0.000000000,0.000000000,0.000000000,0.000000000,0.000000000,0.000000000,0.000000000,0.000000000,0.000000000,0.000000000,0.000000000,0.000000000,0.000000000,0.000000000,0.000000000,0.000000000,0.000000000,0.000000000,0.000000000,0.000000000,5385.000000000,5142.000000000,5771.000000000,4928.000000000,0.144958496,1.335144043,1.953125000,7.995605469,0.000000000,0.000000000,0.000000000,0.000000000,96870.000000000,1718298471.294504404,2.008514404,2.369689941,2.585601807,2.407226563,0.000000000,0.000000000,0.640869141,0.228881836,0.488281250,-0.276641846,-0.147399902,0.615234375,0.000000000,0.000000000,0.000000000,0.000000000,0.000000000,0.000000000,0.000000000,0.000000000,0.000000000,41.000000000,0.000000000,0.000000000,0.009155273,0.109863281,0.249023438,11.619873047,2.000000000
1718298471.305409,0.532836914,0.736999512,9.748535156,-0.986648321,-0.003772026,-0.024028728,-0.011474609,0.004028320,-0.473541260,11.609802246,11.251068115,0.000000000,0.000000000,0.000000000,0.000000000,0.000000000,0.000000000,0.000000000,0.000000000,0.000000000,0.000000000,0.000000000,0.000000000,0.000000000,0.000000000,0.000000000,0.000000000,0.000000000,0.000000000,0.000000000,0.000000000,0.000000000,0.000000000,0.000000000,0.000000000,0.000000000,0.000000000,0.000000000,0.000000000,0.000000000,0.000000000,0.000000000,0.000000000,0.000000000,0.000000000,5357.000000000,5142.000000000,5828.000000000,4957.000000000,0.152587891,1.335144043,1.953125000,7.995605469,0.000000000,0.000000000,0.000000000,0.000000000,96871.000000000,1718298471.304172277,2.057495117,2.316589355,2.657928467,2.352142334,0.000000000,0.000000000,0.625610352,0.228881836,0.488281250,-0.291595459,-0.149536133,0.593872070,0.000000000,0.000000000,0.000000000,0.000000000,0.000000000,0.000000000,0.000000000,0.000000000,0.000000000,41.000000000,0.000000000,0.000000000,0.011901855,0.113525391,0.247192383,11.609802246,2.000000000
1718298471.375321,0.054931641,-0.164794922,9.659729004,-0.984278083,-0.008382174,-0.033459637,-0.016723633,0.004211426,-0.472503662,11.609802246,11.338806152,0.000000000,0.000000000,0.000000000,0.000000000,0.000000000,0.000000000,0.000000000,0.000000000,0.000000000,0.000000000,0.000000000,0.000000000,0.000000000,0.000000000,0.000000000,0.000000000,0.000000000,0.000000000,0.000000000,0.000000000,0.000000000,0.000000000,0.000000000,0.000000000,0.000000000,0.000000000,0.000000000,0.000000000,0.000000000,0.000000000,0.000000000,0.000000000,0.000000000,0.000000000,5300.000000000,5171.000000000,5871.000000000,4971.000000000,0.175476074,1.335144043,1.953125000,7.995605469,0.000000000,0.000000000,0.000000000,0.000000000,96872.000000000,1718298471.374215126,2.074432373,2.533721924,2.440948486,2.449951172,0.000000000,0.000000000,0.610351563,0.244140625,0.488281250,0.005340576,-0.014953613,0.630187988,0.000000000,0.000000000,0.000000000,0.000000000,0.000000000,0.000000000,0.000000000,0.000000000,0.000000000,41.000000000,0.000000000,0.000000000,0.028381348,0.155639648,0.226135254,11.609802246,2.000000000
1718298471.394728,0.825805664,0.542907715,10.491943359,-0.981719136,-0.007284723,-0.030849939,-0.015319824,0.004058838,-0.471374512,11.599731445,11.485290527,0.000000000,0.000000000,0.000000000,0.000000000,0.000000000,0.000000000,0.000000000,0.000000000,0.000000000,0.000000000,0.000000000,0.000000000,0.000000000,0.000000000,0.000000000,0.000000000,0.000000000,0.000000000,0.000000000,0.000000000,0.000000000,0.000000000,0.000000000,0.000000000,0.000000000,0.000000000,0.000000000,0.000000000,0.000000000,0.000000000,0.000000000,0.000000000,0.000000000,0.000000000,5242.000000000,5200.000000000,5971.000000000,4971.000000000,0.183105469,1.335144043,1.953125000,7.995605469,0.000000000,0.000000000,0.000000000,0.000000000,96873.000000000,1718298471.394057512,2.029571533,2.626953125,2.303924561,2.547607422,0.000000000,0.000000000,0.595092773,0.259399414,0.488281250,0.102539063,0.066223145,0.638732910,0.000000000,0.000000000,0.000000000,0.000000000,0.000000000,0.000000000,0.000000000,0.000000000,0.000000000,41.000000000,0.000000000,0.000000000,0.039367676,0.154724121,0.229797363,11.599731445,2.000000000
1718298471.405352,0.716857910,0.555725098,10.173339844,-0.979995310,-0.006259757,-0.029243954,-0.014373779,0.004119873,-0.470611572,11.609802246,10.958099365,0.000000000,0.000000000,0.000000000,0.000000000,0.000000000,0.000000000,0.000000000,0.000000000,0.000000000,0.000000000,0.000000000,0.000000000,0.000000000,0.000000000,0.000000000,0.000000000,0.000000000,0.000000000,0.000000000,0.000000000,0.000000000,0.000000000,0.000000000,0.000000000,0.000000000,0.000000000,0.000000000,0.000000000,0.000000000,0.000000000,0.000000000,0.000000000,0.000000000,0.000000000,5342.000000000,5228.000000000,5914.000000000,5042.000000000,0.198364258,1.342773438,1.960754395,7.995605469,0.000000000,0.000000000,0.000000000,0.000000000,96874.000000000,1718298471.404453754,2.077484131,2.595825195,2.305908203,2.539672852,0.000000000,0.000000000,0.595092773,0.259399414,0.488281250,0.114288330,0.085449219,0.641937256,0.000000000,0.000000000,0.000000000,0.000000000,0.000000000,0.000000000,0.000000000,0.000000000,0.000000000,41.000000000,0.000000000,0.000000000,0.039367676,0.159301758,0.225219727,11.609802246,10.000000000
1718298471.426759,-0.216979980,-1.043701172,10.460815430,-0.976211488,-0.003130852,-0.025289463,-0.011901855,0.004547119,-0.468933105,11.609802246,11.368560791,0.000000000,0.000000000,0.000000000,0.000000000,0.000000000,0.000000000,0.000000000,0.000000000,0.000000000,0.000000000,0.000000000,0.000000000,0.000000000,0.000000000,0.000000000,0.000000000,0.000000000,0.000000000,0.000000000,0.000000000,0.000000000,0.000000000,0.000000000,0.000000000,0.000000000,0.000000000,0.000000000,0.000000000,0.000000000,0.000000000,0.000000000,0.000000000,0.000000000,0.000000000,5385.000000000,5357.000000000,5828.000000000,5042.000000000,0.205993652,1.342773438,1.960754395,7.995605469,0.000000000,0.000000000,0.000000000,0.000000000,96875.000000000,1718298471.426239967,2.108764648,2.597961426,2.266082764,2.580261230,0.000000000,0.000000000,0.579833984,0.259399414,0.488281250,0.215759277,0.183715820,0.647277832,0.000000000,0.000000000,0.000000000,0.000000000,0.000000000,0.000000000,0.000000000,0.000000000,0.000000000,41.000000000,0.000000000,0.000000000,0.030212402,0.177612305,0.223388672,11.609802246,10.000000000
1718298471.455744,0.095214844,-1.131591797,9.839172363,-0.969856143,0.004171922,-0.022067342,-0.008789063,0.006988525,-0.466094971,11.609802246,10.665130615,0.000000000,0.000000000,0.000000000,0.000000000,0.000000000,0.000000000,0.000000000,0.000000000,0.000000000,0.000000000,0.000000000,0.000000000,0.000000000,0.000000000,0.000000000,0.000000000,0.000000000,0.000000000,0.000000000,0.000000000,0.000000000,0.000000000,0.000000000,0.000000000,0.000000000,0.000000000,0.000000000,0.000000000,0.000000000,0.000000000,0.000000000,0.000000000,0.000000000,0.000000000,5400.000000000,5271.000000000,5757.000000000,5100.000000000,0.205993652,1.342773438,1.960754395,7.995605469,0.000000000,0.000000000,0.000000000,0.000000000,96876.000000000,1718298471.454538345,2.011413574,2.659301758,2.140045166,2.773742676,0.000000000,0.000000000,0.564575195,0.274658203,0.488281250,0.099334717,0.245666504,0.596008301,0.000000000,0.000000000,0.000000000,0.000000000,0.000000000,0.000000000,0.000000000,0.000000000,0.000000000,41.000000000,0.000000000,0.000000000,0.032043457,0.182189941,0.221557617,11.609802246,2.000000000
1718298471.464768,0.423889160,1.316528320,10.343627930,-0.967609167,0.006882862,-0.021543510,-0.007934570,0.008056641,-0.465087891,11.609802246,10.108947754,0.000000000,0.000000000,0.000000000,0.000000000,0.000000000,0.000000000,0.000000000,0.000000000,0.000000000,0.000000000,0.000000000,0.000000000,0.000000000,0.000000000,0.000000000,0.000000000,0.000000000,0.000000000,0.000000000,0.000000000,0.000000000,0.000000000,0.000000000,0.000000000,0.000000000,0.000000000,0.000000000,0.000000000,0.000000000,0.000000000,0.000000000,0.000000000,0.000000000,0.000000000,5414.000000000,5300.000000000,5785.000000000,5142.000000000,0.198364258,1.342773438,1.960754395,7.995605469,0.000000000,0.000000000,0.000000000,0.000000000,96877.000000000,1718298471.464068890,2.045135498,2.615203857,2.180633545,2.762451172,0.000000000,0.000000000,0.549316406,0.274658203,0.488281250,0.030975342,0.262756348,0.591735840,0.000000000,0.000000000,0.000000000,0.000000000,0.000000000,0.000000000,0.000000000,0.000000000,0.000000000,41.000000000,0.000000000,0.000000000,0.033874512,0.182189941,0.220642090,11.609802246,2.000000000
1718298471.477481,0.309448242,1.480407715,10.004882813,-0.964886308,0.009728969,-0.021286869,-0.007171631,0.009246826,-0.463867188,11.609802246,9.991455078,0.000000000,0.000000000,0.000000000,0.000000000,0.000000000,0.000000000,0.000000000,0.000000000,0.000000000,0.000000000,0.000000000,0.000000000,0.000000000,0.000000000,0.000000000,0.000000000,0.000000000,0.000000000,0.000000000,0.000000000,0.000000000,0.000000000,0.000000000,0.000000000,0.000000000,0.000000000,0.000000000,0.000000000,0.000000000,0.000000000,0.000000000,0.000000000,0.000000000,0.000000000,5385.000000000,5300.000000000,5742.000000000,5142.000000000,0.198364258,1.342773438,1.960754395,7.995605469,0.000000000,0.000000000,0.000000000,0.000000000,96878.000000000,1718298471.476389408,2.096710205,2.563934326,2.216644287,2.735290527,0.000000000,0.000000000,0.549316406,0.274658203,0.488281250,0.088653564,0.278778076,0.584259033,0.000000000,0.000000000,0.000000000,0.000000000,0.000000000,0.000000000,0.000000000,0.000000000,0.000000000,41.000000000,0.000000000,0.000000000,0.032043457,0.181274414,0.220642090,11.609802246,2.000000000
1718298471.486696,0.355224609,1.191101074,9.618530273,-0.962170005,0.012541345,-0.021349644,-0.006561279,0.010498047,-0.462646484,11.609802246,10.020446777,0.000000000,0.000000000,0.000000000,0.000000000,0.000000000,0.000000000,0.000000000,0.000000000,0.000000000,0.000000000,0.000000000,0.000000000,0.000000000,0.000000000,0.000000000,0.000000000,0.000000000,0.000000000,0.000000000,0.000000000,0.000000000,0.000000000,0.000000000,0.000000000,0.000000000,0.000000000,0.000000000,0.000000000,0.000000000,0.000000000,0.000000000,0.000000000,0.000000000,0.000000000,5385.000000000,5342.000000000,5742.000000000,5185.000000000,0.205993652,1.342773438,1.960754395,7.995605469,0.000000000,0.000000000,0.000000000,0.000000000,96879.000000000,1718298471.486083508,2.129364014,2.521972656,2.256927490,2.716217041,0.000000000,0.000000000,0.534057617,0.274658203,0.488281250,-0.037384033,0.257415771,0.549011230,0.000000000,0.000000000,0.000000000,0.000000000,0.000000000,0.000000000,0.000000000,0.000000000,0.000000000,41.000000000,0.000000000,0.000000000,0.032043457,0.183105469,0.218811035,11.609802246,2.000000000
1718298471.495235,0.525512695,-0.013732910,9.794311523,-0.959323168,0.015407306,-0.021568513,-0.006011963,0.011810303,-0.461364746,11.599731445,10.108947754,0.000000000,0.000000000,0.000000000,0.000000000,0.000000000,0.000000000,0.000000000,0.000000000,0.000000000,0.000000000,0.000000000,0.000000000,0.000000000,0.000000000,0.000000000,0.000000000,0.000000000,0.000000000,0.000000000,0.000000000,0.000000000,0.000000000,0.000000000,0.000000000,0.000000000,0.000000000,0.000000000,0.000000000,0.000000000,0.000000000,0.000000000,0.000000000,0.000000000,0.000000000,5385.000000000,5342.000000000,5742.000000000,5185.000000000,0.205993652,1.342773438,1.960754395,7.995605469,0.000000000,0.000000000,0.000000000,0.000000000,96880.000000000,1718298471.494181871,2.092895508,2.554931641,2.227172852,2.753295898,0.000000000,0.000000000,0.534057617,0.289916992,0.488281250,0.005340576,0.315093994,0.566101074,0.000000000,0.000000000,0.000000000,0.000000000,0.000000000,0.000000000,0.000000000,0.000000000,0.000000000,41.000000000,0.000000000,0.000000000,0.029296875,0.184936523,0.216979980,11.599731445,2.000000000
1718298471.506187,0.431213379,-1.212158203,8.913574219,-0.956210434,0.018244844,-0.022104029,-0.005615234,0.013183594,-0.459960938,11.609802246,9.903717041,0.000000000,0.000000000,0.000000000,0.000000000,0.000000000,0.000000000,0.000000000,0.000000000,0.000000000,0.000000000,0.000000000,0.000000000,0.000000000,0.000000000,0.000000000,0.000000000,0.000000000,0.000000000,0.000000000,0.000000000,0.000000000,0.000000000,0.000000000,0.000000000,0.000000000,0.000000000,0.000000000,0.000000000,0.000000000,0.000000000,0.000000000,0.000000000,0.000000000,0.000000000,5414.000000000,5314.000000000,5657.000000000,5185.000000000,0.205993652,1.342773438,1.960754395,7.995605469,0.000000000,0.000000000,0.000000000,0.000000000,96881.000000000,1718298471.505578518,1.974334717,2.662200928,2.121734619,2.892303467,0.000000000,0.000000000,0.534057617,0.289916992,0.488281250,-0.056610107,0.273437500,0.546875000,0.000000000,0.000000000,0.000000000,0.000000000,0.000000000,0.000000000,0.000000000,0.000000000,0.000000000,41.000000000,0.000000000,0.000000000,0.032043457,0.189514160,0.214233398,11.609802246,2.000000000
